{
    "type": "FeatureCollection",
    "generator": "python-json-converter",
    "copyright": "",
    "timestamp": "2025-04-21T16:03:31.202512",
    "features": [
        {
            "id": "feature-146.9254257--36.0752574",
            "type": "School Zone",
            "properties": {
                "name": "Albury: School Zone RLSC",
                "description": "Variable Speed Limit Enforced.",
                "accreditation": ""
            },
            "geometry": {
                "type": "Point",
                "coordinates": [
                    146.9254257,
                    -36.0752574
                ]
            }
        },
        {
            "id": "feature-151.2011517--33.9014752",
            "type": "Red Light Camera",
            "properties": {
                "name": "Alexandria: Red-Light Speed Cameras",
                "description": "",
                "accreditation": ""
            },
            "geometry": {
                "type": "Point",
                "coordinates": [
                    151.2011517,
                    -33.9014752
                ]
            }
        },
        {
            "id": "feature-151.202838--33.905526",
            "type": "Red Light Camera",
            "properties": {
                "name": "Alexandria: Red-Light Speed Camera",
                "description": "",
                "accreditation": ""
            },
            "geometry": {
                "type": "Point",
                "coordinates": [
                    151.202838,
                    -33.905526
                ]
            }
        },
        {
            "id": "feature-151.122571--33.978499",
            "type": "Red Light Camera",
            "properties": {
                "name": "Allawah: Red-Light Speed Camera",
                "description": "",
                "accreditation": ""
            },
            "geometry": {
                "type": "Point",
                "coordinates": [
                    151.122571,
                    -33.978499
                ]
            }
        },
        {
            "id": "feature-151.1174803--33.8884728",
            "type": "Red Light Camera",
            "properties": {
                "name": "Ashfield: Red-Light Speed Camera",
                "description": "",
                "accreditation": ""
            },
            "geometry": {
                "type": "Point",
                "coordinates": [
                    151.1174803,
                    -33.8884728
                ]
            }
        },
        {
            "id": "feature-151.0214619--33.8481914",
            "type": "Red Light Camera",
            "properties": {
                "name": "Auburn: Red-Light Speed Camera",
                "description": "",
                "accreditation": ""
            },
            "geometry": {
                "type": "Point",
                "coordinates": [
                    151.0214619,
                    -33.8481914
                ]
            }
        },
        {
            "id": "feature-151.0333228--33.849216",
            "type": "Red Light Camera",
            "properties": {
                "name": "Auburn: Red-Light Speed Camera",
                "description": "",
                "accreditation": ""
            },
            "geometry": {
                "type": "Point",
                "coordinates": [
                    151.0333228,
                    -33.849216
                ]
            }
        },
        {
            "id": "feature-151.0346769--33.8499838",
            "type": "Red Light Camera",
            "properties": {
                "name": "Auburn: Red-Light Speed Camera",
                "description": "",
                "accreditation": ""
            },
            "geometry": {
                "type": "Point",
                "coordinates": [
                    151.0346769,
                    -33.8499838
                ]
            }
        },
        {
            "id": "feature-151.2146643--33.9618466",
            "type": "Red Light Camera",
            "properties": {
                "name": "Banksmeadow: Red-Light Speed Cameras",
                "description": "",
                "accreditation": ""
            },
            "geometry": {
                "type": "Point",
                "coordinates": [
                    151.2146643,
                    -33.9618466
                ]
            }
        },
        {
            "id": "feature-151.033325--33.907354",
            "type": "School Zone",
            "properties": {
                "name": "Bankstown: School Zone RLSC",
                "description": "Variable Speed Limit Enforced.",
                "accreditation": ""
            },
            "geometry": {
                "type": "Point",
                "coordinates": [
                    151.033325,
                    -33.907354
                ]
            }
        },
        {
            "id": "feature-151.04012--33.906121",
            "type": "Red Light Camera",
            "properties": {
                "name": "Bankstown: Red-Light Speed Camera",
                "description": "",
                "accreditation": ""
            },
            "geometry": {
                "type": "Point",
                "coordinates": [
                    151.04012,
                    -33.906121
                ]
            }
        },
        {
            "id": "feature-150.9964398--33.8989837",
            "type": "Red Light Camera",
            "properties": {
                "name": "Bass Hill: Red-Light Speed Camera",
                "description": "",
                "accreditation": ""
            },
            "geometry": {
                "type": "Point",
                "coordinates": [
                    150.9964398,
                    -33.8989837
                ]
            }
        },
        {
            "id": "feature-149.5729169--33.4151156",
            "type": "Red Light Camera",
            "properties": {
                "name": "Bathurst: Red-Light Speed Camera",
                "description": "",
                "accreditation": ""
            },
            "geometry": {
                "type": "Point",
                "coordinates": [
                    149.5729169,
                    -33.4151156
                ]
            }
        },
        {
            "id": "feature-149.5851002--33.4175312",
            "type": "Red Light Camera",
            "properties": {
                "name": "Bathurst: Red-Light Speed Camera",
                "description": "",
                "accreditation": ""
            },
            "geometry": {
                "type": "Point",
                "coordinates": [
                    149.5851002,
                    -33.4175312
                ]
            }
        },
        {
            "id": "feature-150.992891--33.761912",
            "type": "Red Light Camera",
            "properties": {
                "name": "Baulkham Hills: Red-Light Speed Cameras",
                "description": "",
                "accreditation": ""
            },
            "geometry": {
                "type": "Point",
                "coordinates": [
                    150.992891,
                    -33.761912
                ]
            }
        },
        {
            "id": "feature-151.197568--33.911546",
            "type": "Red Light Camera",
            "properties": {
                "name": "Beaconsfield: Red-Light Speed Camera",
                "description": "",
                "accreditation": ""
            },
            "geometry": {
                "type": "Point",
                "coordinates": [
                    151.197568,
                    -33.911546
                ]
            }
        },
        {
            "id": "feature-151.083595--33.902145",
            "type": "Red Light Camera",
            "properties": {
                "name": "Belfield: Red-Light Speed Camera",
                "description": "",
                "accreditation": ""
            },
            "geometry": {
                "type": "Point",
                "coordinates": [
                    151.083595,
                    -33.902145
                ]
            }
        },
        {
            "id": "feature-151.098562--33.929325",
            "type": "Red Light Camera",
            "properties": {
                "name": "Belmore: Red-Light Speed Camera",
                "description": "",
                "accreditation": ""
            },
            "geometry": {
                "type": "Point",
                "coordinates": [
                    151.098562,
                    -33.929325
                ]
            }
        },
        {
            "id": "feature-151.127873--33.948211",
            "type": "Red Light Camera",
            "properties": {
                "name": "Bexley: Red-Light Speed Camera",
                "description": "",
                "accreditation": ""
            },
            "geometry": {
                "type": "Point",
                "coordinates": [
                    151.127873,
                    -33.948211
                ]
            }
        },
        {
            "id": "feature-151.131843--33.952823",
            "type": "Red Light Camera",
            "properties": {
                "name": "Bexley: Red-Light Speed Camera",
                "description": "",
                "accreditation": ""
            },
            "geometry": {
                "type": "Point",
                "coordinates": [
                    151.131843,
                    -33.952823
                ]
            }
        },
        {
            "id": "feature-150.8971203--33.798158",
            "type": "Red Light Camera",
            "properties": {
                "name": "Blacktown: Red-Light Speed Camera",
                "description": "",
                "accreditation": ""
            },
            "geometry": {
                "type": "Point",
                "coordinates": [
                    150.8971203,
                    -33.798158
                ]
            }
        },
        {
            "id": "feature-150.9015786--33.7765792",
            "type": "Red Light Camera",
            "properties": {
                "name": "Blacktown: Red-Light Speed Camera",
                "description": "",
                "accreditation": ""
            },
            "geometry": {
                "type": "Point",
                "coordinates": [
                    150.9015786,
                    -33.7765792
                ]
            }
        },
        {
            "id": "feature-150.892408--33.769152",
            "type": "School Zone",
            "properties": {
                "name": "Blacktown: School Zone RLSC",
                "description": "Variable Speed Limit Enforced.",
                "accreditation": ""
            },
            "geometry": {
                "type": "Point",
                "coordinates": [
                    150.892408,
                    -33.769152
                ]
            }
        },
        {
            "id": "feature-150.908042--33.773422",
            "type": "School Zone",
            "properties": {
                "name": "Blacktown: School Zone RLSC",
                "description": "Variable Speed Limit Enforced.",
                "accreditation": ""
            },
            "geometry": {
                "type": "Point",
                "coordinates": [
                    150.908042,
                    -33.773422
                ]
            }
        },
        {
            "id": "feature-150.919112--33.7926928",
            "type": "Red Light Camera",
            "properties": {
                "name": "Blacktown: Red-Light Speed Camera",
                "description": "Prospect Highway / Blacktown Road",
                "accreditation": ""
            },
            "geometry": {
                "type": "Point",
                "coordinates": [
                    150.919112,
                    -33.7926928
                ]
            }
        },
        {
            "id": "feature-150.91161--33.771875",
            "type": "Red Light Camera",
            "properties": {
                "name": "Blacktown: Red-Light Speed Camera",
                "description": "",
                "accreditation": ""
            },
            "geometry": {
                "type": "Point",
                "coordinates": [
                    150.91161,
                    -33.771875
                ]
            }
        },
        {
            "id": "feature-150.9052661--33.7668378",
            "type": "Red Light Camera",
            "properties": {
                "name": "Blacktown: Red-Light Speed Camera",
                "description": "",
                "accreditation": ""
            },
            "geometry": {
                "type": "Point",
                "coordinates": [
                    150.9052661,
                    -33.7668378
                ]
            }
        },
        {
            "id": "feature-150.911044--33.765594",
            "type": "Red Light Camera",
            "properties": {
                "name": "Blacktown: Red-Light Speed Camera",
                "description": "",
                "accreditation": ""
            },
            "geometry": {
                "type": "Point",
                "coordinates": [
                    150.911044,
                    -33.765594
                ]
            }
        },
        {
            "id": "feature-151.1092186--33.9834118",
            "type": "Red Light Camera",
            "properties": {
                "name": "Blakehurst: Red-Light Speed Camera",
                "description": "",
                "accreditation": ""
            },
            "geometry": {
                "type": "Point",
                "coordinates": [
                    151.1092186,
                    -33.9834118
                ]
            }
        },
        {
            "id": "feature-151.2534921--33.8909801",
            "type": "Red Light Camera",
            "properties": {
                "name": "Bondi Junction: Red-Light Speed Camera",
                "description": "",
                "accreditation": ""
            },
            "geometry": {
                "type": "Point",
                "coordinates": [
                    151.2534921,
                    -33.8909801
                ]
            }
        },
        {
            "id": "feature-151.105418--33.868908",
            "type": "Red Light Camera",
            "properties": {
                "name": "Burwood: Red-Light Speed Cameras",
                "description": "",
                "accreditation": ""
            },
            "geometry": {
                "type": "Point",
                "coordinates": [
                    151.105418,
                    -33.868908
                ]
            }
        },
        {
            "id": "feature-151.103696--33.877435",
            "type": "Red Light Camera",
            "properties": {
                "name": "Burwood: Red-Light Speed Camera",
                "description": "",
                "accreditation": ""
            },
            "geometry": {
                "type": "Point",
                "coordinates": [
                    151.103696,
                    -33.877435
                ]
            }
        },
        {
            "id": "feature-150.919171--33.899445",
            "type": "Red Light Camera",
            "properties": {
                "name": "Cabramatta West: Red-Light Speed Cameras",
                "description": "",
                "accreditation": ""
            },
            "geometry": {
                "type": "Point",
                "coordinates": [
                    150.919171,
                    -33.899445
                ]
            }
        },
        {
            "id": "feature-150.81962--34.06657",
            "type": "Red Light Camera",
            "properties": {
                "name": "Campbelltown: Red-Light Speed Cameras",
                "description": "",
                "accreditation": ""
            },
            "geometry": {
                "type": "Point",
                "coordinates": [
                    150.81962,
                    -34.06657
                ]
            }
        },
        {
            "id": "feature-150.805555--34.072193",
            "type": "Red Light Camera",
            "properties": {
                "name": "Campbelltown: Red-Light Speed Cameras",
                "description": "",
                "accreditation": ""
            },
            "geometry": {
                "type": "Point",
                "coordinates": [
                    150.805555,
                    -34.072193
                ]
            }
        },
        {
            "id": "feature-150.808342--34.074904",
            "type": "Red Light Camera",
            "properties": {
                "name": "Campbelltown: Red-Light Speed Camera",
                "description": "",
                "accreditation": ""
            },
            "geometry": {
                "type": "Point",
                "coordinates": [
                    150.808342,
                    -34.074904
                ]
            }
        },
        {
            "id": "feature-151.10442--33.918239",
            "type": "Red Light Camera",
            "properties": {
                "name": "Campsie: Red-Light Speed Camera",
                "description": "",
                "accreditation": ""
            },
            "geometry": {
                "type": "Point",
                "coordinates": [
                    151.10442,
                    -33.918239
                ]
            }
        },
        {
            "id": "feature-151.099638--33.920186",
            "type": "Red Light Camera",
            "properties": {
                "name": "Campsie: Red-Light Speed Camera",
                "description": "",
                "accreditation": ""
            },
            "geometry": {
                "type": "Point",
                "coordinates": [
                    151.099638,
                    -33.920186
                ]
            }
        },
        {
            "id": "feature-150.9238136--33.8836387",
            "type": "School Zone",
            "properties": {
                "name": "Canley Heights: School Zone RLSC",
                "description": "",
                "accreditation": ""
            },
            "geometry": {
                "type": "Point",
                "coordinates": [
                    150.9238136,
                    -33.8836387
                ]
            }
        },
        {
            "id": "feature-150.922894--33.888277",
            "type": "Red Light Camera",
            "properties": {
                "name": "Canley Heights: Red-Light Speed Camera",
                "description": "",
                "accreditation": ""
            },
            "geometry": {
                "type": "Point",
                "coordinates": [
                    150.922894,
                    -33.888277
                ]
            }
        },
        {
            "id": "feature-150.937021--33.885509",
            "type": "Red Light Camera",
            "properties": {
                "name": "Canley Vale: Red-Light Speed Camera",
                "description": "",
                "accreditation": ""
            },
            "geometry": {
                "type": "Point",
                "coordinates": [
                    150.937021,
                    -33.885509
                ]
            }
        },
        {
            "id": "feature-151.132919--34.045677",
            "type": "Red Light Camera",
            "properties": {
                "name": "Caringbah: Red-Light Speed Camera",
                "description": "",
                "accreditation": ""
            },
            "geometry": {
                "type": "Point",
                "coordinates": [
                    151.132919,
                    -34.045677
                ]
            }
        },
        {
            "id": "feature-150.976865--33.724915",
            "type": "Red Light Camera",
            "properties": {
                "name": "Castle Hill: Red-Light Speed Camera",
                "description": "",
                "accreditation": ""
            },
            "geometry": {
                "type": "Point",
                "coordinates": [
                    150.976865,
                    -33.724915
                ]
            }
        },
        {
            "id": "feature-151.004191--33.731204",
            "type": "Red Light Camera",
            "properties": {
                "name": "Castle Hill: Red-Light Speed Camera",
                "description": "",
                "accreditation": ""
            },
            "geometry": {
                "type": "Point",
                "coordinates": [
                    151.004191,
                    -33.731204
                ]
            }
        },
        {
            "id": "feature-151.6866446--32.9567081",
            "type": "Red Light Camera",
            "properties": {
                "name": "Charlestown: Red-Light Speed Camera",
                "description": "",
                "accreditation": ""
            },
            "geometry": {
                "type": "Point",
                "coordinates": [
                    151.6866446,
                    -32.9567081
                ]
            }
        },
        {
            "id": "feature-151.006726--33.883728",
            "type": "Red Light Camera",
            "properties": {
                "name": "Chester Hill: Red-Light Speed Cameras",
                "description": "",
                "accreditation": ""
            },
            "geometry": {
                "type": "Point",
                "coordinates": [
                    151.006726,
                    -33.883728
                ]
            }
        },
        {
            "id": "feature-151.1985978--33.8843445",
            "type": "Red Light Camera",
            "properties": {
                "name": "Chippendale: Red-Light Speed Camera",
                "description": "",
                "accreditation": ""
            },
            "geometry": {
                "type": "Point",
                "coordinates": [
                    151.1985978,
                    -33.8843445
                ]
            }
        },
        {
            "id": "feature-151.0387301--33.8917256",
            "type": "Red Light Camera",
            "properties": {
                "name": "Chullora: Red-Light Speed Camera",
                "description": "",
                "accreditation": ""
            },
            "geometry": {
                "type": "Point",
                "coordinates": [
                    151.0387301,
                    -33.8917256
                ]
            }
        },
        {
            "id": "feature-151.0538675--33.8940975",
            "type": "Red Light Camera",
            "properties": {
                "name": "Chullora/Greenacre: Red-Light Speed Camera",
                "description": "",
                "accreditation": ""
            },
            "geometry": {
                "type": "Point",
                "coordinates": [
                    151.0538675,
                    -33.8940975
                ]
            }
        },
        {
            "id": "feature-150.7579001--33.7683334",
            "type": "Red Light Camera",
            "properties": {
                "name": "Claremont Meadows: Red-Light Speed Camera",
                "description": "",
                "accreditation": ""
            },
            "geometry": {
                "type": "Point",
                "coordinates": [
                    150.7579001,
                    -33.7683334
                ]
            }
        },
        {
            "id": "feature-153.1266609--30.2836728",
            "type": "Red Light Camera",
            "properties": {
                "name": "Coffs Harbour: Red-Light Speed Camera",
                "description": "Pacific Highway / Bray Street.",
                "accreditation": ""
            },
            "geometry": {
                "type": "Point",
                "coordinates": [
                    153.1266609,
                    -30.2836728
                ]
            }
        },
        {
            "id": "feature-153.110624--30.3007834",
            "type": "Red Light Camera",
            "properties": {
                "name": "Coffs Harbour: Red-Light Speed Camera",
                "description": "",
                "accreditation": ""
            },
            "geometry": {
                "type": "Point",
                "coordinates": [
                    153.110624,
                    -30.3007834
                ]
            }
        },
        {
            "id": "feature-151.106013--33.861634",
            "type": "Red Light Camera",
            "properties": {
                "name": "Concord: Red-Light Speed Camera",
                "description": "",
                "accreditation": ""
            },
            "geometry": {
                "type": "Point",
                "coordinates": [
                    151.106013,
                    -33.861634
                ]
            }
        },
        {
            "id": "feature-151.014054--33.916129",
            "type": "Red Light Camera",
            "properties": {
                "name": "Condell Park: Red-Light Speed Camera",
                "description": "",
                "accreditation": ""
            },
            "geometry": {
                "type": "Point",
                "coordinates": [
                    151.014054,
                    -33.916129
                ]
            }
        },
        {
            "id": "feature-150.875883--34.446087",
            "type": "Red Light Camera",
            "properties": {
                "name": "Coniston: Red-Light Speed Cameras",
                "description": "All lanes monitored, additional cameras installed for Right-Turn.",
                "accreditation": ""
            },
            "geometry": {
                "type": "Point",
                "coordinates": [
                    150.875883,
                    -34.446087
                ]
            }
        },
        {
            "id": "feature-150.9006775--34.3735603",
            "type": "Red Light Camera",
            "properties": {
                "name": "Corrimal: Red-Light Speed Camera",
                "description": "",
                "accreditation": ""
            },
            "geometry": {
                "type": "Point",
                "coordinates": [
                    150.9006775,
                    -34.3735603
                ]
            }
        },
        {
            "id": "feature-151.199234--33.826128",
            "type": "Red Light Camera",
            "properties": {
                "name": "Crows Nest: Red-Light Speed Camera",
                "description": "",
                "accreditation": ""
            },
            "geometry": {
                "type": "Point",
                "coordinates": [
                    151.199234,
                    -33.826128
                ]
            }
        },
        {
            "id": "feature-151.111131--33.894669",
            "type": "Red Light Camera",
            "properties": {
                "name": "Croydon Park: Red-Light Speed Camera",
                "description": "",
                "accreditation": ""
            },
            "geometry": {
                "type": "Point",
                "coordinates": [
                    151.111131,
                    -33.894669
                ]
            }
        },
        {
            "id": "feature-151.2151976--33.8792117",
            "type": "Red Light Camera",
            "properties": {
                "name": "Darlinghurst: Red-Light Speed Cameras",
                "description": "",
                "accreditation": ""
            },
            "geometry": {
                "type": "Point",
                "coordinates": [
                    151.2151976,
                    -33.8792117
                ]
            }
        },
        {
            "id": "feature-151.280593--33.758583",
            "type": "Red Light Camera",
            "properties": {
                "name": "Dee Why: Red-Light Speed Camera",
                "description": "",
                "accreditation": ""
            },
            "geometry": {
                "type": "Point",
                "coordinates": [
                    151.280593,
                    -33.758583
                ]
            }
        },
        {
            "id": "feature-151.1545171--33.8510693",
            "type": "Red Light Camera",
            "properties": {
                "name": "Drummoyne: Red-Light Speed Camera",
                "description": "",
                "accreditation": ""
            },
            "geometry": {
                "type": "Point",
                "coordinates": [
                    151.1545171,
                    -33.8510693
                ]
            }
        },
        {
            "id": "feature-151.108907--33.927734",
            "type": "Red Light Camera",
            "properties": {
                "name": "Earlwood: Red-Light Speed Camera",
                "description": "",
                "accreditation": ""
            },
            "geometry": {
                "type": "Point",
                "coordinates": [
                    151.108907,
                    -33.927734
                ]
            }
        },
        {
            "id": "feature-150.8542961--33.7887154",
            "type": "Red Light Camera",
            "properties": {
                "name": "Eastern Creek: Red-Light Speed Camera",
                "description": "",
                "accreditation": ""
            },
            "geometry": {
                "type": "Point",
                "coordinates": [
                    150.8542961,
                    -33.7887154
                ]
            }
        },
        {
            "id": "feature-151.085717--33.788515",
            "type": "Red Light Camera",
            "properties": {
                "name": "Eastwood: Red-Light Speed Camera",
                "description": "",
                "accreditation": ""
            },
            "geometry": {
                "type": "Point",
                "coordinates": [
                    151.085717,
                    -33.788515
                ]
            }
        },
        {
            "id": "feature-151.077665--33.793506",
            "type": "School Zone",
            "properties": {
                "name": "Eastwood: School Zone RLSC",
                "description": "Variable Speed Limit Enforced.",
                "accreditation": ""
            },
            "geometry": {
                "type": "Point",
                "coordinates": [
                    151.077665,
                    -33.793506
                ]
            }
        },
        {
            "id": "feature-151.080294--33.771137",
            "type": "Red Light Camera",
            "properties": {
                "name": "Epping: Red-Light Speed Camera",
                "description": "",
                "accreditation": ""
            },
            "geometry": {
                "type": "Point",
                "coordinates": [
                    151.080294,
                    -33.771137
                ]
            }
        },
        {
            "id": "feature-151.056226--33.814345",
            "type": "Red Light Camera",
            "properties": {
                "name": "Ermington: Red-Light Speed Camera",
                "description": "",
                "accreditation": ""
            },
            "geometry": {
                "type": "Point",
                "coordinates": [
                    151.056226,
                    -33.814345
                ]
            }
        },
        {
            "id": "feature-150.954289--33.863972",
            "type": "Red Light Camera",
            "properties": {
                "name": "Fairfield: Red-Light Speed Camera",
                "description": "",
                "accreditation": ""
            },
            "geometry": {
                "type": "Point",
                "coordinates": [
                    150.954289,
                    -33.863972
                ]
            }
        },
        {
            "id": "feature-150.9454697--33.8729143",
            "type": "Red Light Camera",
            "properties": {
                "name": "Fairfield: Red-Light Speed Camera",
                "description": "",
                "accreditation": ""
            },
            "geometry": {
                "type": "Point",
                "coordinates": [
                    150.9454697,
                    -33.8729143
                ]
            }
        },
        {
            "id": "feature-150.937005--33.872317",
            "type": "Red Light Camera",
            "properties": {
                "name": "Fairfield Heights: Red-Light Speed Camera",
                "description": "",
                "accreditation": ""
            },
            "geometry": {
                "type": "Point",
                "coordinates": [
                    150.937005,
                    -33.872317
                ]
            }
        },
        {
            "id": "feature-150.857987--34.438847",
            "type": "Red Light Camera",
            "properties": {
                "name": "Figtree: Red-Light Speed Camera",
                "description": "",
                "accreditation": ""
            },
            "geometry": {
                "type": "Point",
                "coordinates": [
                    150.857987,
                    -34.438847
                ]
            }
        },
        {
            "id": "feature-151.126074--33.873061",
            "type": "Red Light Camera",
            "properties": {
                "name": "Five Dock: Red-Light Speed Camera",
                "description": "",
                "accreditation": ""
            },
            "geometry": {
                "type": "Point",
                "coordinates": [
                    151.126074,
                    -33.873061
                ]
            }
        },
        {
            "id": "feature-151.130939--33.870133",
            "type": "Red Light Camera",
            "properties": {
                "name": "Five Dock: Red-Light Speed Camera",
                "description": "",
                "accreditation": ""
            },
            "geometry": {
                "type": "Point",
                "coordinates": [
                    151.130939,
                    -33.870133
                ]
            }
        },
        {
            "id": "feature-151.132913--33.824232",
            "type": "Red Light Camera",
            "properties": {
                "name": "Gladesville: Red-Light Speed Camera",
                "description": "",
                "accreditation": ""
            },
            "geometry": {
                "type": "Point",
                "coordinates": [
                    151.132913,
                    -33.824232
                ]
            }
        },
        {
            "id": "feature-151.012217--33.830636",
            "type": "Red Light Camera",
            "properties": {
                "name": "Granville: Red-Light Speed Camera",
                "description": "",
                "accreditation": ""
            },
            "geometry": {
                "type": "Point",
                "coordinates": [
                    151.012217,
                    -33.830636
                ]
            }
        },
        {
            "id": "feature-151.004787--33.827735",
            "type": "Red Light Camera",
            "properties": {
                "name": "Granville: Red-Light Speed Camera",
                "description": "",
                "accreditation": ""
            },
            "geometry": {
                "type": "Point",
                "coordinates": [
                    151.004787,
                    -33.827735
                ]
            }
        },
        {
            "id": "feature-151.0643399--33.9077726",
            "type": "Red Light Camera",
            "properties": {
                "name": "Greenacre: Red-Light Speed Camera",
                "description": "",
                "accreditation": ""
            },
            "geometry": {
                "type": "Point",
                "coordinates": [
                    151.0643399,
                    -33.9077726
                ]
            }
        },
        {
            "id": "feature-151.0579145--33.9028132",
            "type": "Red Light Camera",
            "properties": {
                "name": "Greenacre: Red-Light Speed Camera",
                "description": "",
                "accreditation": ""
            },
            "geometry": {
                "type": "Point",
                "coordinates": [
                    151.0579145,
                    -33.9028132
                ]
            }
        },
        {
            "id": "feature-151.0629607--33.9154636",
            "type": "Red Light Camera",
            "properties": {
                "name": "Greenacre: Red-Light Speed Camera",
                "description": "",
                "accreditation": ""
            },
            "geometry": {
                "type": "Point",
                "coordinates": [
                    151.0629607,
                    -33.9154636
                ]
            }
        },
        {
            "id": "feature-150.8999749--33.8726931",
            "type": "Red Light Camera",
            "properties": {
                "name": "Greenfield Park: Red-Light Speed Camera",
                "description": "",
                "accreditation": ""
            },
            "geometry": {
                "type": "Point",
                "coordinates": [
                    150.8999749,
                    -33.8726931
                ]
            }
        },
        {
            "id": "feature-150.9603345--33.8302749",
            "type": "Red Light Camera",
            "properties": {
                "name": "Greystanes: Red-Light Speed Camera",
                "description": "This camera has been re-activated due to the completion of road works.",
                "accreditation": ""
            },
            "geometry": {
                "type": "Point",
                "coordinates": [
                    150.9603345,
                    -33.8302749
                ]
            }
        },
        {
            "id": "feature-150.995066--33.855751",
            "type": "Red Light Camera",
            "properties": {
                "name": "Guildford: Red-Light Speed Camera",
                "description": "",
                "accreditation": ""
            },
            "geometry": {
                "type": "Point",
                "coordinates": [
                    150.995066,
                    -33.855751
                ]
            }
        },
        {
            "id": "feature-151.141993--33.870808",
            "type": "Red Light Camera",
            "properties": {
                "name": "Haberfield: Red-Light Speed Camera",
                "description": "",
                "accreditation": ""
            },
            "geometry": {
                "type": "Point",
                "coordinates": [
                    151.141993,
                    -33.870808
                ]
            }
        },
        {
            "id": "feature-151.141781--33.887562",
            "type": "Red Light Camera",
            "properties": {
                "name": "Haberfield: Red-Light Speed Camera",
                "description": "",
                "accreditation": ""
            },
            "geometry": {
                "type": "Point",
                "coordinates": [
                    151.141781,
                    -33.887562
                ]
            }
        },
        {
            "id": "feature-151.134388--33.874943",
            "type": "Red Light Camera",
            "properties": {
                "name": "Haberfield: Red-Light Speed Camera",
                "description": "",
                "accreditation": ""
            },
            "geometry": {
                "type": "Point",
                "coordinates": [
                    151.134388,
                    -33.874943
                ]
            }
        },
        {
            "id": "feature-151.746879--32.924064",
            "type": "Red Light Camera",
            "properties": {
                "name": "Hamilton: Red-Light Speed Camera",
                "description": "",
                "accreditation": ""
            },
            "geometry": {
                "type": "Point",
                "coordinates": [
                    151.746879,
                    -32.924064
                ]
            }
        },
        {
            "id": "feature-151.7477951--32.9197767",
            "type": "Red Light Camera",
            "properties": {
                "name": "Hamilton: Red-Light Speed Camera",
                "description": "",
                "accreditation": ""
            },
            "geometry": {
                "type": "Point",
                "coordinates": [
                    151.7477951,
                    -32.9197767
                ]
            }
        },
        {
            "id": "feature-151.7579994--32.9267316",
            "type": "Red Light Camera",
            "properties": {
                "name": "Hamilton East: Red-Light Speed Camera",
                "description": "",
                "accreditation": ""
            },
            "geometry": {
                "type": "Point",
                "coordinates": [
                    151.7579994,
                    -32.9267316
                ]
            }
        },
        {
            "id": "feature-151.2042061--33.8828213",
            "type": "Red Light Camera",
            "properties": {
                "name": "Haymarket: Red-Light Speed Cameras",
                "description": "",
                "accreditation": ""
            },
            "geometry": {
                "type": "Point",
                "coordinates": [
                    151.2042061,
                    -33.8828213
                ]
            }
        },
        {
            "id": "feature-151.0834828--33.8644557",
            "type": "Red Light Camera",
            "properties": {
                "name": "Homebush: Red-Light Speed Camera",
                "description": "",
                "accreditation": ""
            },
            "geometry": {
                "type": "Point",
                "coordinates": [
                    151.0834828,
                    -33.8644557
                ]
            }
        },
        {
            "id": "feature-151.0723222--33.8558361",
            "type": "Red Light Camera",
            "properties": {
                "name": "Homebush West: Red-Light Speed Camera",
                "description": "",
                "accreditation": ""
            },
            "geometry": {
                "type": "Point",
                "coordinates": [
                    151.0723222,
                    -33.8558361
                ]
            }
        },
        {
            "id": "feature-151.064225--33.867812",
            "type": "Red Light Camera",
            "properties": {
                "name": "Homebush West: Red-Light Speed Camera",
                "description": "",
                "accreditation": ""
            },
            "geometry": {
                "type": "Point",
                "coordinates": [
                    151.064225,
                    -33.867812
                ]
            }
        },
        {
            "id": "feature-150.8485924--33.9246528",
            "type": "Red Light Camera",
            "properties": {
                "name": "Hoxton Park: Red-Light Speed Camera",
                "description": "",
                "accreditation": ""
            },
            "geometry": {
                "type": "Point",
                "coordinates": [
                    150.8485924,
                    -33.9246528
                ]
            }
        },
        {
            "id": "feature-151.2231854--33.9100346",
            "type": "Red Light Camera",
            "properties": {
                "name": "Kensington: Red-Light Speed Camera",
                "description": "",
                "accreditation": ""
            },
            "geometry": {
                "type": "Point",
                "coordinates": [
                    151.2231854,
                    -33.9100346
                ]
            }
        },
        {
            "id": "feature-151.091795--33.9512199",
            "type": "Red Light Camera",
            "properties": {
                "name": "Kingsgrove: Red-Light Speed Camera",
                "description": "",
                "accreditation": ""
            },
            "geometry": {
                "type": "Point",
                "coordinates": [
                    151.091795,
                    -33.9512199
                ]
            }
        },
        {
            "id": "feature-151.0662921--34.0350794",
            "type": "Red Light Camera",
            "properties": {
                "name": "Kirrawee: Red-Light Speed Camera",
                "description": "",
                "accreditation": ""
            },
            "geometry": {
                "type": "Point",
                "coordinates": [
                    151.0662921,
                    -34.0350794
                ]
            }
        },
        {
            "id": "feature-151.6881333--32.9405384",
            "type": "Red Light Camera",
            "properties": {
                "name": "Kotara: Red-Light Speed Camera",
                "description": "",
                "accreditation": ""
            },
            "geometry": {
                "type": "Point",
                "coordinates": [
                    151.6881333,
                    -32.9405384
                ]
            }
        },
        {
            "id": "feature-151.712345--32.940637",
            "type": "Red Light Camera",
            "properties": {
                "name": "Kotara: Red-Light Speed Camera",
                "description": "",
                "accreditation": ""
            },
            "geometry": {
                "type": "Point",
                "coordinates": [
                    151.712345,
                    -32.940637
                ]
            }
        },
        {
            "id": "feature-151.072969--33.91145",
            "type": "Red Light Camera",
            "properties": {
                "name": "Lakemba: Red-Light Speed Camera",
                "description": "",
                "accreditation": ""
            },
            "geometry": {
                "type": "Point",
                "coordinates": [
                    151.072969,
                    -33.91145
                ]
            }
        },
        {
            "id": "feature-151.725636--32.915148",
            "type": "Red Light Camera",
            "properties": {
                "name": "Lambton: Red-Light Speed Camera",
                "description": "",
                "accreditation": ""
            },
            "geometry": {
                "type": "Point",
                "coordinates": [
                    151.725636,
                    -32.915148
                ]
            }
        },
        {
            "id": "feature-151.1553637--33.8139402",
            "type": "Feature",
            "properties": {
                "name": "Lane Cove: Red Light Speed Camera",
                "description": "",
                "accreditation": ""
            },
            "geometry": {
                "type": "Point",
                "coordinates": [
                    151.1553637,
                    -33.8139402
                ]
            }
        },
        {
            "id": "feature-151.1636351--33.810737",
            "type": "Red Light Camera",
            "properties": {
                "name": "Lane Cove North: Red-Light Speed Camera",
                "description": "",
                "accreditation": ""
            },
            "geometry": {
                "type": "Point",
                "coordinates": [
                    151.1636351,
                    -33.810737
                ]
            }
        },
        {
            "id": "feature-150.973139--33.889588",
            "type": "Red Light Camera",
            "properties": {
                "name": "Lansdowne: Red-Light Speed Cameras",
                "description": "This area is only 60kph (not 70)",
                "accreditation": ""
            },
            "geometry": {
                "type": "Point",
                "coordinates": [
                    150.973139,
                    -33.889588
                ]
            }
        },
        {
            "id": "feature-151.1475502--33.8842324",
            "type": "Red Light Camera",
            "properties": {
                "name": "Leichhardt: Red-Light Speed Camera",
                "description": "",
                "accreditation": ""
            },
            "geometry": {
                "type": "Point",
                "coordinates": [
                    151.1475502,
                    -33.8842324
                ]
            }
        },
        {
            "id": "feature-151.149068--33.889911",
            "type": "Red Light Camera",
            "properties": {
                "name": "Leichhardt / Petersham: Red-Light Speed Camera",
                "description": "",
                "accreditation": ""
            },
            "geometry": {
                "type": "Point",
                "coordinates": [
                    151.149068,
                    -33.889911
                ]
            }
        },
        {
            "id": "feature-151.041734--33.864997",
            "type": "Red Light Camera",
            "properties": {
                "name": "Lidcombe: Red-Light Speed Camera",
                "description": "",
                "accreditation": ""
            },
            "geometry": {
                "type": "Point",
                "coordinates": [
                    151.041734,
                    -33.864997
                ]
            }
        },
        {
            "id": "feature-151.155237--33.8749523",
            "type": "Red Light Camera",
            "properties": {
                "name": "Lilyfield: Red-Light Speed Camera",
                "description": "",
                "accreditation": ""
            },
            "geometry": {
                "type": "Point",
                "coordinates": [
                    151.155237,
                    -33.8749523
                ]
            }
        },
        {
            "id": "feature-150.919423--33.919508",
            "type": "Red Light Camera",
            "properties": {
                "name": "Liverpool: Red-Light Speed Camera",
                "description": "",
                "accreditation": ""
            },
            "geometry": {
                "type": "Point",
                "coordinates": [
                    150.919423,
                    -33.919508
                ]
            }
        },
        {
            "id": "feature-150.9180683--33.9282855",
            "type": "Red Light Camera",
            "properties": {
                "name": "Liverpool: Red-Light Speed Camera",
                "description": "",
                "accreditation": ""
            },
            "geometry": {
                "type": "Point",
                "coordinates": [
                    150.9180683,
                    -33.9282855
                ]
            }
        },
        {
            "id": "feature-150.92085--33.924573",
            "type": "Red Light Camera",
            "properties": {
                "name": "Liverpool: Red-Light Speed Camera",
                "description": "",
                "accreditation": ""
            },
            "geometry": {
                "type": "Point",
                "coordinates": [
                    150.92085,
                    -33.924573
                ]
            }
        },
        {
            "id": "feature-150.921303--33.9222119",
            "type": "Red Light Camera",
            "properties": {
                "name": "Liverpool: Red-Light Speed Camera",
                "description": "",
                "accreditation": ""
            },
            "geometry": {
                "type": "Point",
                "coordinates": [
                    150.921303,
                    -33.9222119
                ]
            }
        },
        {
            "id": "feature-151.2392093--33.940062",
            "type": "Red Light Camera",
            "properties": {
                "name": "Maroubra Junction: Red-Light Speed Camera",
                "description": "",
                "accreditation": ""
            },
            "geometry": {
                "type": "Point",
                "coordinates": [
                    151.2392093,
                    -33.940062
                ]
            }
        },
        {
            "id": "feature-151.162206--33.909729",
            "type": "Red Light Camera",
            "properties": {
                "name": "Marrickville: Red-Light Speed Camera",
                "description": "",
                "accreditation": ""
            },
            "geometry": {
                "type": "Point",
                "coordinates": [
                    151.162206,
                    -33.909729
                ]
            }
        },
        {
            "id": "feature-151.190213--33.924729",
            "type": "Red Light Camera",
            "properties": {
                "name": "Mascot: Red-Light Speed Camera",
                "description": "",
                "accreditation": ""
            },
            "geometry": {
                "type": "Point",
                "coordinates": [
                    151.190213,
                    -33.924729
                ]
            }
        },
        {
            "id": "feature-151.191756--33.92083",
            "type": "Red Light Camera",
            "properties": {
                "name": "Mascot: Red-Light Speed Camera",
                "description": "",
                "accreditation": ""
            },
            "geometry": {
                "type": "Point",
                "coordinates": [
                    151.191756,
                    -33.92083
                ]
            }
        },
        {
            "id": "feature-151.1993755--33.9340716",
            "type": "Red Light Camera",
            "properties": {
                "name": "Mascot: Red-Light Speed Camera",
                "description": "",
                "accreditation": ""
            },
            "geometry": {
                "type": "Point",
                "coordinates": [
                    151.1993755,
                    -33.9340716
                ]
            }
        },
        {
            "id": "feature-151.1871798--33.9243389",
            "type": "Red Light Camera",
            "properties": {
                "name": "Mascot: Red-Light Speed Camera",
                "description": "",
                "accreditation": ""
            },
            "geometry": {
                "type": "Point",
                "coordinates": [
                    151.1871798,
                    -33.9243389
                ]
            }
        },
        {
            "id": "feature-151.726352--32.889701",
            "type": "Red Light Camera",
            "properties": {
                "name": "Mayfield West: Red-Light Speed Camera",
                "description": "",
                "accreditation": ""
            },
            "geometry": {
                "type": "Point",
                "coordinates": [
                    151.726352,
                    -32.889701
                ]
            }
        },
        {
            "id": "feature-150.981819--33.817953",
            "type": "Red Light Camera",
            "properties": {
                "name": "Mays Hill: Red-Light Speed Cameras",
                "description": "",
                "accreditation": ""
            },
            "geometry": {
                "type": "Point",
                "coordinates": [
                    150.981819,
                    -33.817953
                ]
            }
        },
        {
            "id": "feature-150.9993499--33.8397994",
            "type": "Red Light Camera",
            "properties": {
                "name": "Merrylands: Red-Light Speed Camera",
                "description": "",
                "accreditation": ""
            },
            "geometry": {
                "type": "Point",
                "coordinates": [
                    150.9993499,
                    -33.8397994
                ]
            }
        },
        {
            "id": "feature-150.969508--33.832325",
            "type": "Red Light Camera",
            "properties": {
                "name": "Merrylands West: Red-Light Speed Camera",
                "description": "",
                "accreditation": ""
            },
            "geometry": {
                "type": "Point",
                "coordinates": [
                    150.969508,
                    -33.832325
                ]
            }
        },
        {
            "id": "feature-150.980306--33.929616",
            "type": "Red Light Camera",
            "properties": {
                "name": "Milperra: Red-Light Speed Camera",
                "description": "",
                "accreditation": ""
            },
            "geometry": {
                "type": "Point",
                "coordinates": [
                    150.980306,
                    -33.929616
                ]
            }
        },
        {
            "id": "feature-150.9824514--33.9441068",
            "type": "Red Light Camera",
            "properties": {
                "name": "Milperra: Red-Light Speed Camera",
                "description": "",
                "accreditation": ""
            },
            "geometry": {
                "type": "Point",
                "coordinates": [
                    150.9824514,
                    -33.9441068
                ]
            }
        },
        {
            "id": "feature-151.1132308--34.0351946",
            "type": "Red Light Camera",
            "properties": {
                "name": "Miranda: Red-Light Speed Camera",
                "description": "",
                "accreditation": ""
            },
            "geometry": {
                "type": "Point",
                "coordinates": [
                    151.1132308,
                    -34.0351946
                ]
            }
        },
        {
            "id": "feature-151.221598--33.895065",
            "type": "Red Light Camera",
            "properties": {
                "name": "Moore Park: Red-Light Speed Camera",
                "description": "",
                "accreditation": ""
            },
            "geometry": {
                "type": "Point",
                "coordinates": [
                    151.221598,
                    -33.895065
                ]
            }
        },
        {
            "id": "feature-151.218977--33.88662",
            "type": "Red Light Camera",
            "properties": {
                "name": "Moore Park: Red-Light Speed Cameras",
                "description": "",
                "accreditation": ""
            },
            "geometry": {
                "type": "Point",
                "coordinates": [
                    151.218977,
                    -33.88662
                ]
            }
        },
        {
            "id": "feature-150.948249--33.929218",
            "type": "Red Light Camera",
            "properties": {
                "name": "Moorebank: Red-Light Speed Camera",
                "description": "",
                "accreditation": ""
            },
            "geometry": {
                "type": "Point",
                "coordinates": [
                    150.948249,
                    -33.929218
                ]
            }
        },
        {
            "id": "feature-151.238563--33.824424",
            "type": "Red Light Camera",
            "properties": {
                "name": "Mosman: Red-Light Speed Camera",
                "description": "",
                "accreditation": ""
            },
            "geometry": {
                "type": "Point",
                "coordinates": [
                    151.238563,
                    -33.824424
                ]
            }
        },
        {
            "id": "feature-150.8240007--33.7814415",
            "type": "Red Light Camera",
            "properties": {
                "name": "Mount Druitt: Red-Light Speed Camera",
                "description": "",
                "accreditation": ""
            },
            "geometry": {
                "type": "Point",
                "coordinates": [
                    150.8240007,
                    -33.7814415
                ]
            }
        },
        {
            "id": "feature-150.814444--33.77929",
            "type": "Red Light Camera",
            "properties": {
                "name": "Mount Druitt: Red-Light Speed Camera",
                "description": "",
                "accreditation": ""
            },
            "geometry": {
                "type": "Point",
                "coordinates": [
                    150.814444,
                    -33.77929
                ]
            }
        },
        {
            "id": "feature-151.200939--33.822084",
            "type": "Red Light Camera",
            "properties": {
                "name": "Naremburn: Red-Light Speed Camera",
                "description": "",
                "accreditation": ""
            },
            "geometry": {
                "type": "Point",
                "coordinates": [
                    151.200939,
                    -33.822084
                ]
            }
        },
        {
            "id": "feature-151.130314--33.791388",
            "type": "Red Light Camera",
            "properties": {
                "name": "North Ryde: Red-Light Speed Camera",
                "description": "",
                "accreditation": ""
            },
            "geometry": {
                "type": "Point",
                "coordinates": [
                    151.130314,
                    -33.791388
                ]
            }
        },
        {
            "id": "feature-151.119778--33.793196",
            "type": "School Zone",
            "properties": {
                "name": "North Ryde: School Zone RLSC's x3",
                "description": "This area drops from 70 to 40 within school zone time periods on Lane Cove Road.",
                "accreditation": ""
            },
            "geometry": {
                "type": "Point",
                "coordinates": [
                    151.119778,
                    -33.793196
                ]
            }
        },
        {
            "id": "feature-151.215219--33.829852",
            "type": "Red Light Camera",
            "properties": {
                "name": "North Sydney: Red-Light Speed Camera",
                "description": "",
                "accreditation": ""
            },
            "geometry": {
                "type": "Point",
                "coordinates": [
                    151.215219,
                    -33.829852
                ]
            }
        },
        {
            "id": "feature-150.989635--33.795525",
            "type": "Red Light Camera",
            "properties": {
                "name": "Northmead: Red-Light Speed Camera",
                "description": "",
                "accreditation": ""
            },
            "geometry": {
                "type": "Point",
                "coordinates": [
                    150.989635,
                    -33.795525
                ]
            }
        },
        {
            "id": "feature-150.6057412--34.8722358",
            "type": "Red Light Camera",
            "properties": {
                "name": "Nowra: Red-Light Speed Camera",
                "description": "",
                "accreditation": ""
            },
            "geometry": {
                "type": "Point",
                "coordinates": [
                    150.6057412,
                    -34.8722358
                ]
            }
        },
        {
            "id": "feature-150.8494521--33.7334972",
            "type": "Red Light Camera",
            "properties": {
                "name": "Oakhurst: Red-Light Speed Camera",
                "description": "",
                "accreditation": ""
            },
            "geometry": {
                "type": "Point",
                "coordinates": [
                    150.8494521,
                    -33.7334972
                ]
            }
        },
        {
            "id": "feature-150.983233--33.794317",
            "type": "Red Light Camera",
            "properties": {
                "name": "Old Toongabbie: Red-Light Speed Camera",
                "description": "",
                "accreditation": ""
            },
            "geometry": {
                "type": "Point",
                "coordinates": [
                    150.983233,
                    -33.794317
                ]
            }
        },
        {
            "id": "feature-151.2327715--33.8896953",
            "type": "Red Light Camera",
            "properties": {
                "name": "Paddington: Red-Light Speed Camera",
                "description": "",
                "accreditation": ""
            },
            "geometry": {
                "type": "Point",
                "coordinates": [
                    151.2327715,
                    -33.8896953
                ]
            }
        },
        {
            "id": "feature-150.937874--33.720487",
            "type": "Red Light Camera",
            "properties": {
                "name": "Parklea: Red-Light Speed Camera",
                "description": "",
                "accreditation": ""
            },
            "geometry": {
                "type": "Point",
                "coordinates": [
                    150.937874,
                    -33.720487
                ]
            }
        },
        {
            "id": "feature-151.0001305--33.8193476",
            "type": "Red Light Camera",
            "properties": {
                "name": "Parramatta: Red-Light Speed Camera",
                "description": "",
                "accreditation": ""
            },
            "geometry": {
                "type": "Point",
                "coordinates": [
                    151.0001305,
                    -33.8193476
                ]
            }
        },
        {
            "id": "feature-151.001729--33.814797",
            "type": "Red Light Camera",
            "properties": {
                "name": "Parramatta: Red-Light Speed Camera",
                "description": "",
                "accreditation": ""
            },
            "geometry": {
                "type": "Point",
                "coordinates": [
                    151.001729,
                    -33.814797
                ]
            }
        },
        {
            "id": "feature-150.99931--33.816101",
            "type": "Red Light Camera",
            "properties": {
                "name": "Parramatta: Red-Light Speed Camera",
                "description": "",
                "accreditation": ""
            },
            "geometry": {
                "type": "Point",
                "coordinates": [
                    150.99931,
                    -33.816101
                ]
            }
        },
        {
            "id": "feature-151.005374--33.808649",
            "type": "Red Light Camera",
            "properties": {
                "name": "Parramatta: Red-Light Speed Camera",
                "description": "",
                "accreditation": ""
            },
            "geometry": {
                "type": "Point",
                "coordinates": [
                    151.005374,
                    -33.808649
                ]
            }
        },
        {
            "id": "feature-151.0607884--33.7404341",
            "type": "School Zone",
            "properties": {
                "name": "Pennant Hills: School Zone RLSC",
                "description": "This area drops from 70km/h to 40 within school zone periods. It also is located at the end of the down hill slope on\u00a0Pennant Hills Rd making is very easy to mistakenly speed past!Variable Speed Limit Enforced.",
                "accreditation": ""
            },
            "geometry": {
                "type": "Point",
                "coordinates": [
                    151.0607884,
                    -33.7404341
                ]
            }
        },
        {
            "id": "feature-151.1524875--33.8965213",
            "type": "Red Light Camera",
            "properties": {
                "name": "Petersham: Red-Light Speed Camera",
                "description": "",
                "accreditation": ""
            },
            "geometry": {
                "type": "Point",
                "coordinates": [
                    151.1524875,
                    -33.8965213
                ]
            }
        },
        {
            "id": "feature-150.8348871--33.7440935",
            "type": "Red Light Camera",
            "properties": {
                "name": "Plumpton: Red-Light Speed Camera",
                "description": "",
                "accreditation": ""
            },
            "geometry": {
                "type": "Point",
                "coordinates": [
                    150.8348871,
                    -33.7440935
                ]
            }
        },
        {
            "id": "feature-152.9148532--31.4329381",
            "type": "Red Light Camera",
            "properties": {
                "name": "Port Macquarie: Red-Light Speed Camera",
                "description": "",
                "accreditation": ""
            },
            "geometry": {
                "type": "Point",
                "coordinates": [
                    152.9148532,
                    -31.4329381
                ]
            }
        },
        {
            "id": "feature-150.8755774--33.956719",
            "type": "Red Light Camera",
            "properties": {
                "name": "Prestons: Red-Light Speed Camera",
                "description": "",
                "accreditation": ""
            },
            "geometry": {
                "type": "Point",
                "coordinates": [
                    150.8755774,
                    -33.956719
                ]
            }
        },
        {
            "id": "feature-150.9276009--33.8050269",
            "type": "Red Light Camera",
            "properties": {
                "name": "Prospect: Red-Light Speed Camera",
                "description": "",
                "accreditation": ""
            },
            "geometry": {
                "type": "Point",
                "coordinates": [
                    150.9276009,
                    -33.8050269
                ]
            }
        },
        {
            "id": "feature-151.136298--33.984177",
            "type": "Red Light Camera",
            "properties": {
                "name": "Ramsgate: Red-Light Speed Camera",
                "description": "",
                "accreditation": ""
            },
            "geometry": {
                "type": "Point",
                "coordinates": [
                    151.136298,
                    -33.984177
                ]
            }
        },
        {
            "id": "feature-151.24202--33.913177",
            "type": "Red Light Camera",
            "properties": {
                "name": "Randwick: Red-Light Speed Camera",
                "description": "New 50km/h speed limit in Randwick from June 2018.",
                "accreditation": ""
            },
            "geometry": {
                "type": "Point",
                "coordinates": [
                    151.24202,
                    -33.913177
                ]
            }
        },
        {
            "id": "feature-151.244818--33.902842",
            "type": "Red Light Camera",
            "properties": {
                "name": "Randwick: Red-Light Speed Camera",
                "description": "New 50km/h speed limit in Randwick from June 2018.",
                "accreditation": ""
            },
            "geometry": {
                "type": "Point",
                "coordinates": [
                    151.244818,
                    -33.902842
                ]
            }
        },
        {
            "id": "feature-151.2166299--33.8920467",
            "type": "Red Light Camera",
            "properties": {
                "name": "Redfern: Red-Light Speed Camera",
                "description": "",
                "accreditation": ""
            },
            "geometry": {
                "type": "Point",
                "coordinates": [
                    151.2166299,
                    -33.8920467
                ]
            }
        },
        {
            "id": "feature-150.751913--33.599219",
            "type": "Red Light Camera",
            "properties": {
                "name": "Richmond: Red-Light Speed Camera",
                "description": "",
                "accreditation": ""
            },
            "geometry": {
                "type": "Point",
                "coordinates": [
                    150.751913,
                    -33.599219
                ]
            }
        },
        {
            "id": "feature-151.137559--33.952927",
            "type": "Red Light Camera",
            "properties": {
                "name": "Rockdale: Red-Light Speed Cameras",
                "description": "",
                "accreditation": ""
            },
            "geometry": {
                "type": "Point",
                "coordinates": [
                    151.137559,
                    -33.952927
                ]
            }
        },
        {
            "id": "feature-151.1488727--33.9497016",
            "type": "Red Light Camera",
            "properties": {
                "name": "Rockdale: Red-Light Speed Camera",
                "description": "",
                "accreditation": ""
            },
            "geometry": {
                "type": "Point",
                "coordinates": [
                    151.1488727,
                    -33.9497016
                ]
            }
        },
        {
            "id": "feature-150.8350754--33.7702024",
            "type": "Red Light Camera",
            "properties": {
                "name": "Rooty Hill: Red-Light Speed Camera\u00a0",
                "description": "",
                "accreditation": ""
            },
            "geometry": {
                "type": "Point",
                "coordinates": [
                    150.8350754,
                    -33.7702024
                ]
            }
        },
        {
            "id": "feature-150.847081--33.7605854",
            "type": "Red Light Camera",
            "properties": {
                "name": "Rooty Hill: Red-Light Speed Camera",
                "description": "",
                "accreditation": ""
            },
            "geometry": {
                "type": "Point",
                "coordinates": [
                    150.847081,
                    -33.7605854
                ]
            }
        },
        {
            "id": "feature-150.9222766--33.690422",
            "type": "Red Light Camera",
            "properties": {
                "name": "Rouse Hill - Red-Light Speed Camera",
                "description": "",
                "accreditation": ""
            },
            "geometry": {
                "type": "Point",
                "coordinates": [
                    150.9222766,
                    -33.690422
                ]
            }
        },
        {
            "id": "feature-151.075517--33.939686",
            "type": "Red Light Camera",
            "properties": {
                "name": "Roselands: Red-Light Speed Camera",
                "description": "",
                "accreditation": ""
            },
            "geometry": {
                "type": "Point",
                "coordinates": [
                    151.075517,
                    -33.939686
                ]
            }
        },
        {
            "id": "feature-151.168659--33.862848",
            "type": "Red Light Camera",
            "properties": {
                "name": "Rozelle: Red-Light Speed Camera",
                "description": "",
                "accreditation": ""
            },
            "geometry": {
                "type": "Point",
                "coordinates": [
                    151.168659,
                    -33.862848
                ]
            }
        },
        {
            "id": "feature-151.172124--33.8653",
            "type": "Red Light Camera",
            "properties": {
                "name": "Rozelle: Red-Light Speed Camera",
                "description": "",
                "accreditation": ""
            },
            "geometry": {
                "type": "Point",
                "coordinates": [
                    151.172124,
                    -33.8653
                ]
            }
        },
        {
            "id": "feature-151.2284911--33.8768985",
            "type": "Red Light Camera",
            "properties": {
                "name": "Rushcutters Bay: Red-Light Speed Camera",
                "description": "",
                "accreditation": ""
            },
            "geometry": {
                "type": "Point",
                "coordinates": [
                    151.2284911,
                    -33.8768985
                ]
            }
        },
        {
            "id": "feature-151.103398--33.815956",
            "type": "Red Light Camera",
            "properties": {
                "name": "Ryde: Red-Light Speed Camera",
                "description": "",
                "accreditation": ""
            },
            "geometry": {
                "type": "Point",
                "coordinates": [
                    151.103398,
                    -33.815956
                ]
            }
        },
        {
            "id": "feature-150.942849--33.768379",
            "type": "Red Light Camera",
            "properties": {
                "name": "Seven Hills: Red-Light Speed Cameras",
                "description": "One camera is on a downhill slope, easy to make a mistake here.",
                "accreditation": ""
            },
            "geometry": {
                "type": "Point",
                "coordinates": [
                    150.942849,
                    -33.768379
                ]
            }
        },
        {
            "id": "feature-151.0497272--33.8301858",
            "type": "Red Light Camera",
            "properties": {
                "name": "Silverwater: Red-Light Speed Camera",
                "description": "",
                "accreditation": ""
            },
            "geometry": {
                "type": "Point",
                "coordinates": [
                    151.0497272,
                    -33.8301858
                ]
            }
        },
        {
            "id": "feature-151.0444055--33.8423374",
            "type": "Red Light Camera",
            "properties": {
                "name": "Silverwater: Red-Light Speed Camera",
                "description": "",
                "accreditation": ""
            },
            "geometry": {
                "type": "Point",
                "coordinates": [
                    151.0444055,
                    -33.8423374
                ]
            }
        },
        {
            "id": "feature-151.0435956--33.8432547",
            "type": "Red Light Camera",
            "properties": {
                "name": "Silverwater: Red-Light Speed Cameras",
                "description": "One of 2 cameras is located on the M4 off-ramp (monitoring right-turn).",
                "accreditation": ""
            },
            "geometry": {
                "type": "Point",
                "coordinates": [
                    151.0435956,
                    -33.8432547
                ]
            }
        },
        {
            "id": "feature-150.940969--33.853479",
            "type": "Red Light Camera",
            "properties": {
                "name": "Smithfield: Red-Light Speed Camera",
                "description": "",
                "accreditation": ""
            },
            "geometry": {
                "type": "Point",
                "coordinates": [
                    150.940969,
                    -33.853479
                ]
            }
        },
        {
            "id": "feature-150.9389305--33.8619502",
            "type": "Red Light Camera",
            "properties": {
                "name": "Smithfield: Red-Light Speed Camera",
                "description": "",
                "accreditation": ""
            },
            "geometry": {
                "type": "Point",
                "coordinates": [
                    150.9389305,
                    -33.8619502
                ]
            }
        },
        {
            "id": "feature-150.922218--33.850835",
            "type": "Red Light Camera",
            "properties": {
                "name": "Smithfield: Red-Light Speed Camera",
                "description": "",
                "accreditation": ""
            },
            "geometry": {
                "type": "Point",
                "coordinates": [
                    150.922218,
                    -33.850835
                ]
            }
        },
        {
            "id": "feature-150.922633--33.848826",
            "type": "Red Light Camera",
            "properties": {
                "name": "Smithfield: Red-Light Speed Camera",
                "description": "",
                "accreditation": ""
            },
            "geometry": {
                "type": "Point",
                "coordinates": [
                    150.922633,
                    -33.848826
                ]
            }
        },
        {
            "id": "feature-150.962673--33.817487",
            "type": "Red Light Camera",
            "properties": {
                "name": "South Wentworthville: Red-Light Speed Camera",
                "description": "",
                "accreditation": ""
            },
            "geometry": {
                "type": "Point",
                "coordinates": [
                    150.962673,
                    -33.817487
                ]
            }
        },
        {
            "id": "feature-150.768744--33.769585",
            "type": "Red Light Camera",
            "properties": {
                "name": "St Marys: Red-Light Speed Cameras",
                "description": "",
                "accreditation": ""
            },
            "geometry": {
                "type": "Point",
                "coordinates": [
                    150.768744,
                    -33.769585
                ]
            }
        },
        {
            "id": "feature-150.772974--33.773195",
            "type": "School Zone",
            "properties": {
                "name": "St Marys: School Zone RLSC",
                "description": "Variable Speed Limit Enforced.",
                "accreditation": ""
            },
            "geometry": {
                "type": "Point",
                "coordinates": [
                    150.772974,
                    -33.773195
                ]
            }
        },
        {
            "id": "feature-150.7711665--33.7831705",
            "type": "Red Light Camera",
            "properties": {
                "name": "St Marys: Red-Light Speed Camera",
                "description": "",
                "accreditation": ""
            },
            "geometry": {
                "type": "Point",
                "coordinates": [
                    150.7711665,
                    -33.7831705
                ]
            }
        },
        {
            "id": "feature-151.1814492--33.9072284",
            "type": "Red Light Camera",
            "properties": {
                "name": "St Peters: Red-Light Speed Camera",
                "description": "",
                "accreditation": ""
            },
            "geometry": {
                "type": "Point",
                "coordinates": [
                    151.1814492,
                    -33.9072284
                ]
            }
        },
        {
            "id": "feature-151.2143397--33.8835006",
            "type": "Red Light Camera",
            "properties": {
                "name": "Surry Hills: Red-Light Speed Camera",
                "description": "",
                "accreditation": ""
            },
            "geometry": {
                "type": "Point",
                "coordinates": [
                    151.2143397,
                    -33.8835006
                ]
            }
        },
        {
            "id": "feature-151.2140983--33.885115",
            "type": "Red Light Camera",
            "properties": {
                "name": "Surry Hills: Red-Light Speed Camera",
                "description": "",
                "accreditation": ""
            },
            "geometry": {
                "type": "Point",
                "coordinates": [
                    151.2140983,
                    -33.885115
                ]
            }
        },
        {
            "id": "feature-151.217996--33.886173",
            "type": "Red Light Camera",
            "properties": {
                "name": "Surry Hills: Red-Light Speed Cameras",
                "description": "",
                "accreditation": ""
            },
            "geometry": {
                "type": "Point",
                "coordinates": [
                    151.217996,
                    -33.886173
                ]
            }
        },
        {
            "id": "feature-151.206073--33.889682",
            "type": "School Zone",
            "properties": {
                "name": "Surry Hills: School Zone RLSC",
                "description": "Variable Speed Limit Enforced",
                "accreditation": ""
            },
            "geometry": {
                "type": "Point",
                "coordinates": [
                    151.206073,
                    -33.889682
                ]
            }
        },
        {
            "id": "feature-151.2173561--33.8899961",
            "type": "Red Light Camera",
            "properties": {
                "name": "Surry Hills: Red-Light Speed Camera (Light Rail Crossing)",
                "description": "",
                "accreditation": ""
            },
            "geometry": {
                "type": "Point",
                "coordinates": [
                    151.2173561,
                    -33.8899961
                ]
            }
        },
        {
            "id": "feature-151.2099218--33.8732661",
            "type": "Red Light Camera",
            "properties": {
                "name": "Sydney: Red-Light Speed Camera",
                "description": "",
                "accreditation": ""
            },
            "geometry": {
                "type": "Point",
                "coordinates": [
                    151.2099218,
                    -33.8732661
                ]
            }
        },
        {
            "id": "feature-151.081249--33.730822",
            "type": "Red Light Camera",
            "properties": {
                "name": "Thornleigh: Red-Light Speed Camera",
                "description": "",
                "accreditation": ""
            },
            "geometry": {
                "type": "Point",
                "coordinates": [
                    151.081249,
                    -33.730822
                ]
            }
        },
        {
            "id": "feature-150.9002403--34.3835309",
            "type": "Red Light Camera",
            "properties": {
                "name": "Towradgi: Red-Light Speed Camera",
                "description": "",
                "accreditation": ""
            },
            "geometry": {
                "type": "Point",
                "coordinates": [
                    150.9002403,
                    -34.3835309
                ]
            }
        },
        {
            "id": "feature-153.5445281--28.2058196",
            "type": "Feature",
            "properties": {
                "name": "Tweed Heads South: Red Light Speed Camera",
                "description": "",
                "accreditation": ""
            },
            "geometry": {
                "type": "Point",
                "coordinates": [
                    153.5445281,
                    -28.2058196
                ]
            }
        },
        {
            "id": "feature-153.5216361--28.1784305",
            "type": "Red Light Camera",
            "properties": {
                "name": "Tweed Heads West: Red-Light Speed Camera",
                "description": "Gold Coast Hwy / M1This is only a 60 zone (not 80)",
                "accreditation": ""
            },
            "geometry": {
                "type": "Point",
                "coordinates": [
                    153.5216361,
                    -28.1784305
                ]
            }
        },
        {
            "id": "feature-151.195712--33.879054",
            "type": "Red Light Camera",
            "properties": {
                "name": "Ultimo: Red-Light Speed Camera",
                "description": "",
                "accreditation": ""
            },
            "geometry": {
                "type": "Point",
                "coordinates": [
                    151.195712,
                    -33.879054
                ]
            }
        },
        {
            "id": "feature-150.84928--34.44979",
            "type": "Red Light Camera",
            "properties": {
                "name": "Unanderra: Red-Light Speed Camera",
                "description": "",
                "accreditation": ""
            },
            "geometry": {
                "type": "Point",
                "coordinates": [
                    150.84928,
                    -34.44979
                ]
            }
        },
        {
            "id": "feature-151.1027999--33.7103802",
            "type": "School Zone",
            "properties": {
                "name": "Waitara: School Zone RLSC",
                "description": "Variable Speed Limit Enforced.",
                "accreditation": ""
            },
            "geometry": {
                "type": "Point",
                "coordinates": [
                    151.1027999,
                    -33.7103802
                ]
            }
        },
        {
            "id": "feature-151.671152--32.906145",
            "type": "Red Light Camera",
            "properties": {
                "name": "Wallsend: Red-Light Speed Camera",
                "description": "",
                "accreditation": ""
            },
            "geometry": {
                "type": "Point",
                "coordinates": [
                    151.671152,
                    -32.906145
                ]
            }
        },
        {
            "id": "feature-150.887604--34.485395",
            "type": "Red Light Camera",
            "properties": {
                "name": "Warrawong: Red-Light Speed Camera",
                "description": "",
                "accreditation": ""
            },
            "geometry": {
                "type": "Point",
                "coordinates": [
                    150.887604,
                    -34.485395
                ]
            }
        },
        {
            "id": "feature-150.928507--33.914219",
            "type": "Red Light Camera",
            "properties": {
                "name": "Warwick Farm: Red-Light Speed Camera",
                "description": "",
                "accreditation": ""
            },
            "geometry": {
                "type": "Point",
                "coordinates": [
                    150.928507,
                    -33.914219
                ]
            }
        },
        {
            "id": "feature-150.9316778--33.913765",
            "type": "Red Light Camera",
            "properties": {
                "name": "Warwick Farm: Red-Light Speed Camera",
                "description": "",
                "accreditation": ""
            },
            "geometry": {
                "type": "Point",
                "coordinates": [
                    150.9316778,
                    -33.913765
                ]
            }
        },
        {
            "id": "feature-151.2061697--33.9002749",
            "type": "Red Light Camera",
            "properties": {
                "name": "Waterloo: Red-Light Speed Camera",
                "description": "",
                "accreditation": ""
            },
            "geometry": {
                "type": "Point",
                "coordinates": [
                    151.2061697,
                    -33.9002749
                ]
            }
        },
        {
            "id": "feature-150.969513--33.815559",
            "type": "Red Light Camera",
            "properties": {
                "name": "Wentworthville: Red-Light Speed Camera",
                "description": "Downhill slope.",
                "accreditation": ""
            },
            "geometry": {
                "type": "Point",
                "coordinates": [
                    150.969513,
                    -33.815559
                ]
            }
        },
        {
            "id": "feature-151.047662--33.754123",
            "type": "Red Light Camera",
            "properties": {
                "name": "West Pennant Hills: Red-Light Speed Camera",
                "description": "",
                "accreditation": ""
            },
            "geometry": {
                "type": "Point",
                "coordinates": [
                    151.047662,
                    -33.754123
                ]
            }
        },
        {
            "id": "feature-151.135386--33.773259",
            "type": "Red Light Camera",
            "properties": {
                "name": "West Pymble:\u00a0Variable Red-Light Speed Camera",
                "description": "Variable Speed Limit enforced (40 heavy vehicles / 70 light vehicles)",
                "accreditation": ""
            },
            "geometry": {
                "type": "Point",
                "coordinates": [
                    151.135386,
                    -33.773259
                ]
            }
        },
        {
            "id": "feature-151.0963562--33.813459",
            "type": "Red Light Camera",
            "properties": {
                "name": "West Ryde: Red-Light Speed Camera",
                "description": "",
                "accreditation": ""
            },
            "geometry": {
                "type": "Point",
                "coordinates": [
                    151.0963562,
                    -33.813459
                ]
            }
        },
        {
            "id": "feature-151.0675298--33.9213465",
            "type": "Red Light Camera",
            "properties": {
                "name": "Wiley Park: Red-Light Speed Camera",
                "description": "Lakemba Street / King Georges Road",
                "accreditation": ""
            },
            "geometry": {
                "type": "Point",
                "coordinates": [
                    151.0675298,
                    -33.9213465
                ]
            }
        },
        {
            "id": "feature-151.068428--33.922882",
            "type": "School Zone",
            "properties": {
                "name": "Wiley Park: School Zone RLSC",
                "description": "Variable Speed Limit Enforced.",
                "accreditation": ""
            },
            "geometry": {
                "type": "Point",
                "coordinates": [
                    151.068428,
                    -33.922882
                ]
            }
        },
        {
            "id": "feature-150.869177--34.529974",
            "type": "Red Light Camera",
            "properties": {
                "name": "Windang: Red-Light Speed Camera",
                "description": "",
                "accreditation": ""
            },
            "geometry": {
                "type": "Point",
                "coordinates": [
                    150.869177,
                    -34.529974
                ]
            }
        },
        {
            "id": "feature-150.8151949--33.612323",
            "type": "Red Light Camera",
            "properties": {
                "name": "Windsor: Red-Light Speed Camera",
                "description": "",
                "accreditation": ""
            },
            "geometry": {
                "type": "Point",
                "coordinates": [
                    150.8151949,
                    -33.612323
                ]
            }
        },
        {
            "id": "feature-150.899561--34.426976",
            "type": "Red Light Camera",
            "properties": {
                "name": "Wollongong: Red-Light Speed Camera",
                "description": "",
                "accreditation": ""
            },
            "geometry": {
                "type": "Point",
                "coordinates": [
                    150.899561,
                    -34.426976
                ]
            }
        },
        {
            "id": "feature-150.887378--34.425799",
            "type": "Red Light Camera",
            "properties": {
                "name": "Wollongong: Red-Light Speed Camera",
                "description": "",
                "accreditation": ""
            },
            "geometry": {
                "type": "Point",
                "coordinates": [
                    150.887378,
                    -34.425799
                ]
            }
        },
        {
            "id": "feature-151.239917--33.887932",
            "type": "Red Light Camera",
            "properties": {
                "name": "Woollahra: Red-Light Speed Camera",
                "description": "",
                "accreditation": ""
            },
            "geometry": {
                "type": "Point",
                "coordinates": [
                    151.239917,
                    -33.887932
                ]
            }
        },